city,lat,lon,elevation
拉萨,29.65,91.10,3650
敦煌,40.14,94.66,1139
大理,25.61,100.27,1976
呼伦贝尔,49.21,119.75,657
杭州,30.27,120.15,12
成都,30.57,104.06,500
北京,39.90,116.40,43
上海,31.23,121.47,4
广州,23.13,113.26,11
深圳,22.54,114.06,2